Time,X,Y,Z,Vx,Vy,Vz,Ax,Ay,Az,Pitch,Roll,Yaw,Course,Altitude,BaroPressure
0.435166895389557,-0.955448806285858,0.425393223762512,11.9543361663818,-4.52100133895874,2.01287937164307,56.5656356811523,0,0,0,-4.56676435470581,-2.03800129890442,0.0812711492180824,156,11.9543361663818,101181.875
0.452389001846314,-1.03505945205688,0.460766971111298,12.9486722946167,-4.7242283821106,2.09508347511291,58.9071846008301,-11.8003587722778,4.77317380905151,135.961822509766,-4.56607484817505,-2.04148197174072,0.081548236310482,156.083847045898,12.9486722946167,101169.9765625
0.488415747880936,-1.21293139457703,0.539357900619507,15.1593589782715,-5.15040588378906,2.26829671859741,63.8210678100586,-11.829475402832,4.80790710449219,136.395416259766,-4.56008434295654,-2.07177305221558,0.0839579105377197,156.230773925781,15.1593589782715,101143.546875
0.551548182964325,-1.56171095371246,0.692425787448883,19.4616165161133,-5.89885091781616,2.58464288711548,72.482780456543,-11.8551588058472,5.01083421707153,137.199096679688,-4.53482627868652,-2.20176887512207,0.0942637249827385,156.338882446289,19.4616165161133,101092.109375
0.624833941459656,-2.02581357955933,0.896487355232239,25.1444244384766,-6.7659764289856,2.99414014816284,82.617790222168,-11.8321151733398,5.5876784324646,138.294403076172,-4.48435831069946,-2.47113609313965,0.115440540015697,156.129211425781,25.1444244384766,101024.1875
0.700608313083649,-2.57225942611694,1.14174854755402,31.8045749664307,-7.65540885925293,3.49477624893188,93.1861572265625,-11.7379055023193,6.60693168640137,139.471527099609,-4.41627502441406,-2.85690855979919,0.14536939561367,155.462799072266,31.8045749664307,100944.6328125
0.75784569978714,-3.02949261665344,1.35423398017883,37.3682136535645,-8.32025241851807,3.9403817653656,101.227920532227,-11.6155471801758,7.78521776199341,140.498428344727,-4.36263084411621,-3.18632245063782,0.170577168464661,154.658264160156,37.3682136535645,100878.1796875
0.815083086490631,-3.52459931373596,1.59404766559601,43.3935623168945,-8.97891139984131,4.44994497299194,109.319122314453,-11.507495880127,8.90262889862061,141.362182617188,-4.31576871871948,-3.50912046432495,0.194995298981667,153.637008666992,43.3935623168945,100806.3046875
0.86639016866684,-4.00033617019653,1.83522939682007,49.1893653869629,-9.56530094146729,4.95939540863037,116.613372802734,-11.4290170669556,9.92943668365479,142.168487548828,-4.28626918792725,-3.75921440124512,0.213747069239616,152.594268798828,49.1893653869629,100737.171875
0.911804437637329,-4.44649314880371,2.07139420509338,54.6325073242187,-10.0829935073853,5.44596481323242,123.102325439453,-11.3993368148804,10.7140207290649,142.883560180664,-4.27419996261597,-3.92610502243042,0.226199507713318,151.625915527344,54.6325073242187,100672.296875
0.95400595664978,-4.88217353820801,2.31116962432861,59.9553337097168,-10.5649366378784,5.92017889022827,129.159774780273,-11.4200420379639,11.2368955612183,143.536285400391,-4.2769045829773,-4.0213885307312,0.233300611376762,150.735427856445,59.9553337097168,100608.8828125
0.994683861732483,-5.3214259147644,2.56149458885193,65.3284683227539,-11.0323047637939,6.38854169845581,135.024047851563,-11.489483833313,11.5139360427856,144.163589477539,-4.29262113571167,-4.05239534378052,0.235615193843842,149.925903320313,65.3284683227539,100544.921875
1.03637754917145,-5.79147243499756,2.83790898323059,71.0838851928711,-11.5163192749023,6.87017822265625,141.061294555664,-11.6088199615479,11.5517854690552,144.800018310547,-4.32104158401489,-4.02284574508667,0.233394399285316,149.181381225586,71.0838851928711,100476.4296875
1.07746410369873,-6.2745509147644,3.12980842590332,77.0022888183594,-12.000114440918,7.33673667907715,147.03742980957,-11.7750244140625,11.3555021286011,145.452331542969,-4.3586893081665,-3.94112968444824,0.227209642529488,148.558853149414,77.0022888183594,100406.0234375
1.12371790409088,-6.84238290786743,3.48094964027405,83.9595260620117,-12.5545654296875,7.84228277206421,153.796325683594,-11.9871444702148,10.9298286437988,146.126281738281,-4.40764141082764,-3.80606484413147,0.216886475682259,148.008804321289,83.9595260620117,100323.3125
1.16649615764618,-7.39057731628418,3.82597994804382,90.6726837158203,-13.0764169692993,8.28447246551514,160.063919067383,-12.1989908218384,10.3367872238159,146.513534545898,-4.45331478118897,-3.66589617729187,0.206058844923973,147.643997192383,90.6726837158203,100243.5859375
1.20927441120148,-7.96127128601074,4.18937206268311,97.6541976928711,-13.6063594818115,8.70103263854981,166.342834472656,-12.3881282806396,9.73766231536865,146.778213500977,-4.49353122711182,-3.53865480422974,0.196135252714157,147.401794433594,97.6541976928711,100160.71875
1.24532353878021,-8.45990180969238,4.50909757614136,103.746215820313,-14.0582675933838,9.03508853912354,171.642440795898,-12.5358963012695,9.26668453216553,147.010665893555,-4.51958131790161,-3.45965099334717,0.189928442239761,147.271606445313,103.746215820313,100088.421875
1.27841424942017,-8.93200874328613,4.81301355361939,109.506561279297,-14.4762086868286,9.33254337310791,176.513549804688,-12.6301641464233,8.98907375335693,147.204727172852,-4.53544092178345,-3.41972088813782,0.186776980757713,147.190887451172,109.506561279297,100020.1328125
1.31092083454132,-9.40927791595459,5.12107849121094,115.322265625,-14.8884553909302,9.62133598327637,181.304336547852,-12.6819438934326,8.88412666320801,147.378967285156,-4.54304981231689,-3.4147891998291,0.186387062072754,147.128326416016,115.322265625,99951.203125
1.34353458881378,-9.90159893035889,5.43961191177368,121.313735961914,-15.302508354187,9.91314029693604,186.116256713867,-12.6956548690796,8.94727802276611,147.542663574219,-4.5433030128479,-3.44298362731934,0.188620507717133,147.064376831055,121.313735961914,99880.25
1.37758779525757,-10.4300508499146,5.78247594833374,127.737213134766,-15.7341222763062,10.2255516052246,191.145935058594,-12.6746921539307,9.1742115020752,147.700576782227,-4.5373740196228,-3.50160717964172,0.193261072039604,146.98030090332,127.737213134766,99804.2109375
1.41459095478058,-11.0209131240845,6.1673436164856,134.911422729492,-16.2012519836426,10.579083442688,196.617156982422,-12.6240491867065,9.55409908294678,147.85823059082,-4.52680110931397,-3.58617162704468,0.199942767620087,146.856292724609,134.911422729492,99719.34375
1.45131134986877,-11.624303817749,6.5625147819519,142.231048583984,-16.6624031066895,10.9470663070679,202.052230834961,-12.5584468841553,10.0212116241455,148.012405395508,-4.51598215103149,-3.6741931438446,0.206881001591682,146.695404052734,142.231048583984,99632.84375
1.48803174495697,-12.2445869445801,6.97150611877441,149.750366210937,-17.1214294433594,11.3313989639282,207.492752075195,-12.5005826950073,10.4664630889893,148.160751342773,-4.50868034362793,-3.74844551086426,0.212721854448318,146.502395629883,149.750366210937,99544.015625
1.51863479614258,-12.7743949890137,7.32331228256226,156.169708251953,-17.5030555725098,11.6612987518311,212.031097412109,-12.4701986312866,10.7799634933472,148.297149658203,-4.50741720199585,-3.78958225250244,0.215954765677452,146.326721191406,156.169708251953,99468.25
1.5476016998291,-13.2866353988647,7.66568517684937,162.37385559082,-17.8643131256104,11.9780111312866,216.330368041992,-12.4713897705078,10.9335947036743,148.42008972168,-4.51109838485718,-3.8067798614502,0.217306524515152,146.158187866211,162.37385559082,99395.046875
1.57646036148071,-13.8073778152466,8.01591873168945,168.6787109375,-18.2250576019287,12.2941160202026,220.616912841797,-12.5003881454468,10.9535531997681,148.53581237793,-4.5194582939148,-3.80276250839233,0.216990038752556,145.997497558594,168.6787109375,99320.6953125
1.60573756694794,-14.3463268280029,8.38051319122314,175.201385498047,-18.5921077728271,12.6113815307617,224.962188720703,-12.5370626449585,10.8366050720215,148.418395996094,-4.53190994262695,-3.78057265281677,0.215239122509956,145.850204467773,175.201385498047,99243.8359375
1.63756835460663,-14.9445009231567,8.78734016418457,182.437210083008,-18.9928531646729,12.9490013122559,229.679580688477,-12.5898675918579,10.6067056655884,148.202178955078,-4.54822063446045,-3.7433295249939,0.2122912555933,145.714508056641,182.437210083008,99158.65625
1.68111431598663,-15.78355884552,9.361008644104,192.579132080078,-19.5444736480713,13.3957862854004,236.121368408203,-12.6675462722778,10.2600784301758,147.930770874023,-4.57101249694824,-3.6891918182373,0.207987949252129,145.573257446289,192.579132080078,99039.3359375
1.70917534828186,-16.337007522583,9.74084281921387,199.263092041016,-19.9018001556396,13.6752557754517,240.264999389648,-12.733904838562,9.9593448638916,147.664947509766,-4.58347797393799,-3.66344666481018,0.205933690071106,145.505630493164,199.263092041016,98960.7578125
1.73723638057709,-16.9004974365234,10.1284513473511,206.063247680664,-20.2600536346436,13.9503583908081,244.402526855469,-12.766939163208,9.80372428894043,147.447448730469,-4.59281492233276,-3.65088415145874,0.204928994178772,145.450088500977,206.063247680664,98880.875
1.76432263851166,-17.4539527893066,10.5098896026611,212.737213134766,-20.6061344146728,14.2143564224243,248.390335083008,-12.7769870758057,9.74656677246094,147.226257324219,-4.59840869903564,-3.65307235717773,0.20510445535183,145.401626586914,212.737213134766,98802.5
1.79153895378113,-18.0195045471191,10.9003715515137,219.551940917969,-20.9535083770752,14.4807548522949,252.391143798828,-12.763445854187,9.78818893432617,147.000381469727,-4.60084009170532,-3.66832637786865,0.206327736377716,145.35205078125,219.551940917969,98722.5234375
1.82001626491547,-18.6213684082031,11.3167543411255,226.798889160156,-21.3159866333008,14.7631158828735,256.570495605469,-12.7286682128906,9.91529846191406,146.760757446289,-4.60082674026489,-3.69433569908142,0.208413943648338,145.294143676758,226.798889160156,98637.5625
1.85346579551697,-19.3414745330811,11.8162107467651,235.463027954102,-21.7399368286133,15.1014366149902,261.470428466797,-12.6743240356445,10.1143636703491,146.487350463867,-4.59926223754883,-3.72983360290527,0.211260691285133,145.214599609375,235.463027954102,98536.0703125
1.88197350502014,-19.9663600921631,12.2508983612061,242.976379394531,-22.0996150970459,15.3955049514771,265.638519287109,-12.6168775558472,10.3153972625732,146.209243774414,-4.59838819503784,-3.75677919387817,0.213420987129211,145.137344360352,242.976379394531,98448.0859375
1.91048121452332,-20.6014804840088,12.6940288543701,250.608444213867,-22.458044052124,15.6934471130371,269.799224853516,-12.5730533599854,10.451283454895,145.9501953125,-4.599289894104,-3.77514123916626,0.214893087744713,145.054565429688,250.608444213867,98358.8125
1.93684184551239,-21.1978492736816,13.1113681793213,257.771148681641,-22.7887916564941,15.9704179763794,273.640014648437,-12.5470294952393,10.5069894790649,145.701736450195,-4.60237693786621,-3.78219723701477,0.215458929538727,144.977172851563,257.771148681641,98275.09375
1.96312081813812,-21.8010444641113,13.5346775054932,265.012359619141,-23.1183319091797,16.2458572387695,277.462615966797,-12.5400733947754,10.4813556671143,145.462356567383,-4.60765695571899,-3.78003239631653,0.215285122394562,144.903289794922,265.012359619141,98190.484375
1.99009442329407,-22.4291934967041,13.9766731262207,272.549377441406,-23.4568424224854,16.5260639190674,281.379730224609,-12.5496950149536,10.3881807327271,145.220275878906,-4.61489677429199,-3.77078890800476,0.214542016386986,144.834136962891,272.549377441406,98102.5
2.02153563499451,-23.1729106903076,14.5013437271118,281.467895507812,-23.8515872955322,16.8475761413574,285.930297851562,-12.5550146102905,10.2258214950562,144.732574462891,-4.62447261810303,-3.75647926330566,0.213389605283737,144.764526367188,281.467895507812,97998.46875
2.05032467842102,-23.8647747039795,14.9905424118042,289.75927734375,-24.2127571105957,17.1366958618164,290.076080322266,-12.5453910827637,10.0426998138428,144.005569458008,-4.63293504714966,-3.7457013130188,0.212519973516464,144.710861206055,289.75927734375,97901.828125
2.07911372184753,-24.5670299530029,15.4880046844482,298.169738769531,-24.573413848877,17.421989440918,294.201599121094,-12.527569770813,9.90979671478272,143.301696777344,-4.63997030258179,-3.74136137962341,0.212169274687767,144.66423034668,298.169738769531,97803.8828125
2.1049177646637,-25.205286026001,15.9408416748047,305.808837890625,-24.8958568572998,17.67604637146,297.881927490234,-12.4958333969116,9.84562492370606,142.626037597656,-4.64457368850708,-3.7443106174469,0.212407991290092,144.625274658203,305.808837890625,97714.9921875
2.13097524642944,-25.8582401275635,16.4047775268555,313.619140625,-25.2203483581543,17.9326229095459,301.582427978516,-12.4529113769531,9.84655952453613,142.012969970703,-4.64759969711304,-3.75309085845947,0.213119208812714,144.585739135742,313.619140625,97624.15625
2.15904211997986,-26.5709762573242,16.9119777679443,322.139282226563,-25.5676956176758,18.2098579406738,305.543792724609,-12.3757019042969,9.87765979766846,141.140228271484,-4.64956665039063,-3.7664110660553,0.214198663830757,144.540725708008,322.139282226563,97525.1796875
2.19421720504761,-27.4779243469238,17.5586471557617,332.973571777344,-25.9992561340332,18.5590305328369,310.469116210938,-12.2689256668091,9.92670249938965,140.023071289063,-4.65147924423218,-3.78305149078369,0.215547680854797,144.479644775391,332.973571777344,97399.40625
2.22637891769409,-28.3204002380371,18.1606826782227,343.030670166016,-26.3901176452637,18.8788661956787,314.932220458984,-12.1530065536499,9.94460964202881,138.770721435547,-4.65410232543945,-3.79317188262939,0.216368615627289,144.420959472656,343.030670166016,97282.78125
2.25264167785645,-29.0176410675049,18.659912109375,351.349182128906,-26.7068843841553,19.13893699646,318.54736328125,-12.0614414215088,9.90264511108398,137.652816772461,-4.65745544433594,-3.79626417160034,0.21661950647831,144.373504638672,351.349182128906,97186.3828125
2.27855443954468,-29.7137203216553,19.1591567993164,359.649566650391,-27.0176029205322,19.3933010101318,322.088165283203,-11.9909467697144,9.8161678314209,136.643173217773,-4.66185426712036,-3.79538822174072,0.216548383235931,144.329132080078,359.649566650391,97090.3046875
2.30667805671692,-30.4782733917236,19.7084083557129,368.761535644531,-27.3530464172363,19.6659336090088,325.901489257812,-11.9274663925171,9.6940803527832,135.591522216797,-4.66743469238281,-3.79216837882996,0.216286554932594,144.285125732422,368.761535644531,96984.8828125
2.34289646148682,-31.4767436981201,20.4269542694092,380.653442382813,-27.7824974060059,20.0115432739258,330.76708984375,-11.8572587966919,9.54237651824951,134.340560913086,-4.67474317550659,-3.78901886940002,0.216030120849609,144.235061645508,380.653442382813,96847.484375
2.37387871742249,-32.3431663513184,21.0514831542969,390.965301513672,-28.1474456787109,20.3032855987549,334.888885498047,-11.7792673110962,9.41643238067627,133.037292480469,-4.68012523651123,-3.79027724266052,0.216132804751396,144.196380615234,390.965301513672,96728.4453125
2.40026545524597,-33.0899658203125,21.5904788970947,399.847900390625,-28.4562549591064,20.5501003265381,338.370391845703,-11.703200340271,9.35374164581299,131.941528320313,-4.68373823165894,-3.79468393325806,0.216492503881454,144.164520263672,399.847900390625,96626.015625
2.42702198028564,-33.855525970459,22.143669128418,408.948486328125,-28.7674598693848,20.7998371124268,341.876220703125,-11.6309909820557,9.33367824554443,131.027069091797,-4.68665504455566,-3.80121469497681,0.217025905847549,144.131820678711,408.948486328125,96521.1328125
2.45862627029419,-34.7704772949219,22.8056926727295,419.818298339844,-29.1324729919434,21.0946426391602,345.987121582031,-11.5494804382324,9.32802200317383,130.074142456055,-4.68968725204468,-3.80926895141602,0.217684179544449,144.091934204102,419.818298339844,96396
2.48717975616455,-35.606990814209,23.4118156433105,429.750122070313,-29.4599456787109,21.36057472229,349.674255371094,-11.4687461853027,9.31347179412842,129.130783081055,-4.69266557693481,-3.81488537788391,0.218143418431282,144.055191040039,429.750122070313,96281.78125
2.51573324203491,-36.4528274536133,24.0255184173584,439.786895751953,-29.7855052947998,21.6254291534424,353.337127685547,-11.4017467498779,9.27573013305664,128.281097412109,-4.69621706008911,-3.81807017326355,0.218404039740562,144.018905639648,439.786895751953,96166.46875
2.54356551170349,-37.2862243652344,24.6309757232666,449.670471191406,-30.101224899292,21.8818264007568,356.884338378906,-11.3436527252197,9.21222877502441,127.449569702148,-4.7002739906311,-3.81924533843994,0.218500390648842,143.985046386719,449.670471191406,96053.046875
2.57369041442871,-38.1981468200684,25.2943134307861,460.479095458984,-30.4413223266602,22.1569004058838,360.697875976562,-11.2895774841309,9.13111686706543,126.590866088867,-4.70502090454102,-3.81974053382874,0.218540951609611,143.950775146484,460.479095458984,95929.109375
2.60624289512634,-39.1950454711914,26.0203762054443,472.287353515625,-30.8069515228271,22.4513645172119,364.788238525391,-11.2319917678833,9.04582691192627,125.654403686523,-4.71005487442017,-3.82114171981812,0.218655943870544,143.91633605957,472.287353515625,95793.8515625
2.63879537582397,-40.203800201416,26.7559757232666,484.228118896484,-31.1685810089111,22.7420635223389,368.823883056641,-11.1091222763062,8.9301643371582,123.973487854004,-4.71454954147339,-3.82445168495178,0.218927890062332,143.883758544922,484.228118896484,95657.2421875
2.66866302490234,-41.1395378112793,27.439094543457,495.297485351562,-31.4881801605225,22.9992866516113,372.376190185547,-10.7005128860474,8.61209869384766,118.934944152832,-4.71809387207031,-3.82885980606079,0.219290316104889,143.855239868164,495.297485351562,95530.7421875
2.70185327529907,-42.1903190612793,28.2070293426514,507.719665527344,-31.8276634216309,23.2733745574951,376.133666992187,-10.2284030914307,8.25808525085449,113.210258483887,-4.72161149978638,-3.83404874801636,0.219717249274254,143.824584960938,507.719665527344,95388.9296875
2.73402380943298,-43.2193107604981,28.9598579406738,519.876098632813,-32.140869140625,23.527006149292,379.584655761719,-9.73579502105713,7.88397216796875,107.271728515625,-4.72500610351563,-3.83818507194519,0.220057874917984,143.796005249023,519.876098632813,95250.3125
2.76619434356689,-44.2581291198731,29.7206478118896,532.140502929687,-32.4384994506836,23.7682266235352,382.846984863281,-9.25164318084717,7.4981803894043,101.407363891602,-4.7287015914917,-3.84103465080261,0.220292687416077,143.769149780273,532.140502929687,95110.65625
2.7973964214325,-45.2745895385742,30.4657554626465,544.133117675781,-32.7123756408691,23.9898662567139,385.830413818359,-8.77749824523926,7.10336112976074,95.6163558959961,-4.73261499404907,-3.8430187702179,0.220456287264824,143.745269775391,544.133117675781,94974.234375
2.83484721183777,-46.5055541992188,31.3689270019531,558.646240234375,-33.0219230651855,24.2396831512451,389.17578125,-8.2654447555542,6.67053747177124,89.327018737793,-4.7374849319458,-3.84551119804382,0.220662042498589,143.719543457031,558.646240234375,94809.375
2.86873292922974,-47.6290130615234,32.193920135498,571.8818359375,-33.2838821411133,24.4507102966309,391.980712890625,-7.73066329956055,6.22761344909668,82.7762222290039,-4.74169254302979,-3.84859395027161,0.220916718244553,143.698593139648,571.8818359375,94659.2109375
2.9026186466217,-48.7610549926758,33.0258293151855,585.208923339844,-33.5284385681152,24.6478137969971,394.574310302734,-7.21709442138672,5.81671333312988,76.5395431518555,-4.74557876586914,-3.85239601135254,0.221231192350388,143.679214477539,585.208923339844,94508.1953125
2.93805336952209,-49.9533805847168,33.9026527404785,599.235290527344,-33.7653732299805,24.839168548584,397.060028076172,-6.68651103973389,5.4002046585083,70.1492080688477,-4.74941062927246,-3.85649085044861,0.221570059657097,143.660308837891,599.235290527344,94349.46875
2.97467923164368,-51.1942443847656,34.815788269043,613.8212890625,-33.9899749755859,25.0209083557129,399.385681152344,-6.13232660293579,4.9620623588562,63.4975662231445,-4.75337219238281,-3.86019468307495,0.221876829862595,143.642242431641,613.8212890625,94184.65625
3.01130509376526,-52.4429550170899,35.7352752685547,628.487915039063,-34.1939735412598,25.1859874725342,401.463500976563,-5.56979560852051,4.50717353820801,56.7309455871582,-4.7575249671936,-3.8632652759552,0.222131416201591,143.626037597656,628.487915039063,94019.1640625
3.0485782623291,-53.721076965332,36.6769523620605,643.487976074219,-34.3855895996094,25.3407859802246,403.384674072266,-5.1408576965332,4.15308141708374,51.5430564880371,-4.76191663742065,-3.86620330810547,0.222375214099884,143.611297607422,643.487976074219,93850.1328125
3.09810185432434,-55.429931640625,37.9367256164551,663.524047851563,-34.6229019165039,25.5321674346924,405.726867675781,-4.79190444946289,3.86445021629333,47.2945022583008,-4.76776313781738,-3.87066602706909,0.222745880484581,143.593612670898,663.524047851563,93624.78125
3.13850998878479,-56.8326377868652,38.9713859558105,679.954284667969,-34.8018379211426,25.6765270233154,407.4599609375,-4.42821741104126,3.57253789901733,42.8897132873535,-4.77236652374268,-3.87477970123291,0.223087906837463,143.580383300781,679.954284667969,93440.265625
3.18062829971313,-58.3021125793457,40.0558128356934,697.15087890625,-34.9741744995117,25.8157901763916,409.096130371094,-4.09172582626343,3.3064751625061,38.8469848632812,-4.77703189849854,-3.87898516654968,0.223437950015068,143.567535400391,697.15087890625,93247.5
3.22809886932373,-59.9665718078613,41.2847137451172,716.609924316406,-35.146240234375,25.9549446105957,410.675018310547,-3.62468242645264,2.93138337135315,33.2603530883789,-4.78229761123657,-3.88325452804565,0.223793670535088,143.554718017578,716.609924316406,93029.7421875
3.2698540687561,-61.4367599487305,42.3706092834473,733.780639648438,-35.2686920166016,26.0538768768311,411.718719482422,-2.93261170387268,2.36933994293213,24.9957180023193,-4.78694915771484,-3.8867654800415,0.224086552858353,143.545791625977,733.780639648438,92837.9375
3.3165910243988,-63.0876884460449,43.5903663635254,753.04296875,-35.3732681274414,26.1382350921631,412.499877929688,-2.23754644393921,1.80495738983154,16.7139358520508,-4.79209232330322,-3.89083123207092,0.224425956606865,143.538345336914,753.04296875,92623.140625
3.36807823181152,-64.9110870361328,44.9378700256348,774.293640136719,-35.4496841430664,26.1998825073242,412.899780273438,-1.48417484760284,1.19733464717865,7.76702356338501,-4.79767942428589,-3.8955774307251,0.224822700023651,143.532913208008,774.293640136719,92386.640625
3.41421461105347,-66.5475692749024,46.1474189758301,793.344299316406,-35.4865798950195,26.2297306060791,412.884033203125,-0.799710631370544,0.646953642368317,-0.341315686702728,-4.80270624160767,-3.89981770515442,0.225177481770515,143.530227661133,793.344299316406,92175.015625
3.47505855560303,-68.7070236206055,47.743595123291,818.451354980469,-35.4870223999023,26.2301540374756,412.292846679688,-0.00727278413251042,0.00695930235087872,-9.71644020080566,-4.8093729019165,-3.90516471862793,0.225625455379486,143.530136108398,818.451354980469,91896.75
3.52868413925171,-70.6089401245117,49.1493186950684,840.533813476563,-35.4394760131836,26.1917171478271,411.205963134766,0.886636257171631,-0.716764032840729,-20.2680034637451,-4.81519889831543,-3.90982699394226,0.226016610860825,143.533569335938,840.533813476563,91652.5625
3.59400010108948,-72.9209747314453,50.857852935791,867.339111328125,-35.3516693115234,26.1207618713379,409.531951904297,1.3443375825882,-1.08633899688721,-25.6294345855713,-4.82239818572998,-3.91579365730286,0.226517766714096,143.539932250977,867.339111328125,91356.84375
3.64578819274902,-74.7491683959961,52.20849609375,888.504211425781,-35.251277923584,26.039701461792,407.843109130859,1.93850338459015,-1.56523263454437,-32.6106376647949,-4.82821035385132,-3.92059373855591,0.226921588182449,143.547164916992,888.504211425781,91123.8984375
3.69757628440857,-76.5721817016602,53.5549545288086,909.582092285156,-35.151554107666,25.9591751098633,406.1640625,1.92561292648315,-1.5549201965332,-32.4214820861816,-4.83409118652344,-3.92535042762756,0.227322116494179,143.554412841797,909.582092285156,90892.40625
3.75986361503601,-78.7579650878906,55.1688842773438,934.818420410156,-35.0325546264648,25.8630428314209,404.157440185547,1.91049253940582,-1.54336810112,-32.215576171875,-4.84129047393799,-3.93119335174561,0.227814927697182,143.563140869141,934.818420410156,90615.8515625
3.81673550605774,-80.7472610473633,56.6372871398926,957.751831054688,-34.9248046875,25.7760047912598,402.33740234375,1.89460802078247,-1.53042280673981,-32.0024147033691,-4.84788131713867,-3.93661379814148,0.228272676467895,143.571090698242,957.751831054688,90365.125
3.88051271438599,-82.9708404541016,58.2781181335449,983.347045898437,-34.8049430847168,25.6792087554932,400.310028076172,1.87937986850739,-1.51772141456604,-31.7883815765381,-4.85526466369629,-3.94266510009766,0.228784412145615,143.579971313477,983.347045898437,90085.9296875
3.95582127571106,-85.5866622924805,60.2077102661133,1013.40423583984,-34.6647186279297,25.565954208374,397.934417724609,1.8619989156723,-1.50387346744537,-31.5450229644775,-4.86408948898315,-3.94984245300293,0.229392439126968,143.590454101563,1013.40423583984,89759.0078125
4.0199613571167,-87.8062591552734,61.8444442749023,1038.86328125,-34.5464286804199,25.4704036712646,395.926605224609,1.84424376487732,-1.48971652984619,-31.3035545349121,-4.87167119979858,-3.95604515075684,0.229918763041496,143.599380493164,1038.86328125,89482.8203125
4.09311866760254,-90.3286819458008,63.7038345336914,1067.74499511719,-34.4127502441406,25.3624382019043,393.653717041016,1.82727384567261,-1.47579872608185,-31.0685043334961,-4.88033819198608,-3.96315097808838,0.230522751808166,143.609527587891,1067.74499511719,89170.3203125
4.17254495620728,-93.0562438964844,65.7136611938477,1098.91418457031,-34.2690849304199,25.2464084625244,391.20654296875,1.80878794193268,-1.46084809303284,-30.8106307983398,-4.88985300064087,-3.97090625762939,0.231183171272278,143.620529174805,1098.91418457031,88834.0859375
4.25150442123413,-95.7565231323242,67.7025909423828,1129.70825195313,-34.1277885437012,25.1322803497314,388.794586181641,1.7894800901413,-1.44540131092072,-30.5467720031738,-4.89939451217651,-3.9787073135376,0.231848746538162,143.631454467773,1129.70825195313,88502.90625
4.32119035720825,-98.1304397583008,69.4504776000977,1156.72814941406,-34.004322052002,25.0325603485107,386.682952880859,1.77175629138947,-1.43099176883698,-30.3021450042725,-4.9078574180603,-3.98563432693481,0.232440799474716,143.641052246094,1156.72814941406,88213.1328125
4.40383863449097,-100.934837341309,71.5145263671875,1188.583984375,-33.8593673706055,24.9154834747314,384.198974609375,1.75387418270111,-1.41656768321991,-30.0548095703125,-4.91799354553223,-3.99390888214111,0.233149379491806,143.652435302734,1188.583984375,87872.484375
4.47867774963379,-103.463973999023,73.375244140625,1217.25354003906,-33.7294883728027,24.8105792999268,381.968597412109,1.73544275760651,-1.40172922611237,-29.8022918701172,-4.92724132537842,-4.00147199630737,0.233798414468765,143.662719726563,1217.25354003906,87566.8125
4.56059455871582,-106.221214294434,75.4029846191406,1248.44384765625,-33.5887985229492,24.6969470977783,379.547607421875,1.71747231483459,-1.38716590404511,-29.5542507171631,-4.93743848800659,-4.00981140136719,0.234515383839607,143.673950195313,1248.44384765625,87235.2578125
4.63743543624878,-108.797180175781,77.2966613769531,1277.52197265625,-33.4582099914551,24.5914726257324,377.295684814453,1.69946694374084,-1.37263488769531,-29.3063106536865,-4.94709014892578,-4.01769876480103,0.235194846987724,143.684463500977,1277.52197265625,86927.046875
4.71319723129272,-111.327194213867,79.1558456420898,1306.02307128906,-33.330753326416,24.4885272979736,375.093170166016,1.6823343038559,-1.35880267620087,-29.0715751647949,-4.95667266845703,-4.02553844451904,0.235871568322182,143.694808959961,1306.02307128906,86625.796875
4.78890895843506,-113.84593963623,81.0060501098633,1334.33923339844,-33.2046508789062,24.3866748809814,372.909545898437,1.66556036472321,-1.34526610374451,-28.8412952423096,-4.96633720397949,-4.03343296051025,0.236554369330406,143.705123901367,1334.33923339844,86327.3671875
4.86959600448608,-116.519752502441,82.9693984985352,1364.3349609375,-33.0716438293457,24.2792472839355,370.601409912109,1.64843130111694,-1.33141076564789,-28.606029510498,-4.97671222686768,-4.04191446304321,0.237289309501648,143.716094970703,1364.3349609375,86012.140625
4.94577169418335,-119.03426361084,84.815055847168,1392.4833984375,-32.9473495483398,24.1788558959961,368.439849853516,1.63167905807495,-1.3178927898407,-28.3759822845459,-4.98658227920532,-4.04998779296875,0.237990364432335,143.726409912109,1392.4833984375,85717.140625
5.02708339691162,-121.70792388916,86.7767639160156,1422.34875488281,-32.8160858154297,24.0728378295898,366.151824951172,1.61432766914368,-1.30384755134583,-28.13893699646,-4.99720287322998,-4.05867528915405,0.23874619603157,143.737411499023,1422.34875488281,85405.0703125
5.11286640167236,-124.517105102539,88.8370513916016,1453.65563964844,-32.6792030334473,23.9622783660889,363.759643554687,1.59568643569946,-1.28882718086243,-27.8864250183105,-5.00851345062256,-4.06791877746582,0.23955225944519,143.748977661133,1453.65563964844,85078.9140625
5.19404220581055,-127.164657592773,90.7779998779297,1483.09289550781,-32.5511779785156,23.8588733673096,361.516296386719,1.57713317871094,-1.2738401889801,-27.6356620788574,-5.0192985534668,-4.07674026489258,0.240323215723038,143.759902954102,1483.09289550781,84773.1640625
5.26753044128418,-129.55256652832,92.5279388427734,1509.5859375,-32.4365272521973,23.7662715911865,359.502288818359,1.56012356281281,-1.26008975505829,-27.4058494567871,-5.02914094924927,-4.08479166030884,0.241028323769569,143.769729614258,1509.5859375,84498.7421875
5.34271574020386,-131.986938476563,94.311279296875,1536.53833007813,-32.3204383850098,23.6725101470947,357.458160400391,1.54403674602509,-1.2470715045929,-27.187873840332,-5.03929758071899,-4.09309244155884,0.24175663292408,143.779769897461,1536.53833007813,84220.28125
5.41736364364624,-134.395324707031,96.0749359130859,1563.14660644531,-32.2063751220703,23.5803833007812,355.444763183594,1.52801692485809,-1.23415184020996,-26.9719200134277,-5.04945373535156,-4.10139751434326,0.242486879229546,143.78971862793,1563.14660644531,83946.1328125
5.4922251701355,-136.802093505859,97.8367691040039,1589.6806640625,-32.0931587219238,23.488941192627,353.441467285156,1.51234424114227,-1.22148334980011,-26.7600193023682,-5.0597128868103,-4.10978841781616,0.243226185441017,143.799652099609,1589.6806640625,83673.4609375
5.57063770294189,-139.313995361328,99.6748733520508,1617.31323242188,-31.9758110046387,23.3941612243652,351.35986328125,1.49654293060303,-1.20873498916626,-26.5468273162842,-5.07053899765015,-4.11864805221558,0.24400831758976,143.810028076172,1617.31323242188,83390.25
5.64697456359863,-141.750610351563,101.457221984863,1644.05810546875,-31.8627662658691,23.3028564453125,349.349517822266,1.48086702823639,-1.19607722759247,-26.3351860046387,-5.08117341995239,-4.12734270095825,0.244777545332909,143.820098876953,1644.05810546875,83116.8984375
5.73137950897217,-144.434753417969,103.419876098633,1673.45178222656,-31.739128112793,23.2029972076416,347.144989013672,1.46482121944428,-1.18309700489044,-26.1184787750244,-5.09302377700806,-4.13703584671021,0.245637029409409,143.831207275391,1673.45178222656,82817.2734375
5.81276321411133,-147.013000488281,105.304344177246,1701.61779785156,-31.6212463378906,23.1077842712402,345.037292480469,1.44846904277802,-1.16992628574371,-25.8982620239258,-5.1045389175415,-4.14646100997925,0.246474578976631,143.841873168945,1701.61779785156,82531.015625
5.89659023284912,-149.658676147461,107.237327575684,1730.45092773438,-31.5011444091797,23.0107803344727,342.884185791016,1.43273532390594,-1.15719175338745,-25.685115814209,-5.11651945114136,-4.15625238418579,0.247346758842468,143.852828979492,1730.45092773438,82238.7890625
5.97667169570923,-152.176788330078,109.076393127441,1757.82788085938,-31.3877506256104,22.9191951751709,340.845123291016,1.41598045825958,-1.14364993572235,-25.4623527526855,-5.12804889678955,-4.16568517684937,0.248188987374306,143.863250732422,1757.82788085938,81962.0859375
6.05394983291626,-154.598190307617,110.844161987305,1784.09228515625,-31.279634475708,22.8318710327148,338.894683837891,1.39905226230621,-1.12999796867371,-25.2392139434814,-5.13926362991333,-4.17486047744751,0.249009907245636,143.873260498047,1784.09228515625,81697.3359375
6.13389587402344,-157.094451904297,112.665908813477,1811.10546875,-31.1691799163818,22.7426586151123,336.895111083984,1.38161385059357,-1.11590790748596,-25.0115299224854,-5.15095043182373,-4.18443250656128,0.249868243932724,143.883560180664,1811.10546875,81425.78125
6.21051168441772,-159.478485107422,114.405113220215,1836.84411621094,-31.064697265625,22.6582698822021,334.99658203125,1.36372184753418,-1.10145318508148,-24.7798595428467,-5.16226100921631,-4.19367742538452,0.250699132680893,143.893371582031,1836.84411621094,81167.6875
6.28948831558228,-161.927658081055,116.191192626953,1863.22436523438,-30.9584255218506,22.572437286377,333.058013916016,1.34561002254486,-1.08680999279022,-24.5460987091064,-5.1740026473999,-4.20328426361084,0.251564472913742,143.903427124023,1863.22436523438,80903.8671875
6.37626695632935,-164.609176635742,118.145957946777,1892.03503417969,-30.8433818817139,22.4795169830322,330.949951171875,1.32571375370026,-1.07077383995056,-24.2924156188965,-5.18700695037842,-4.21393060684204,0.252525806427002,143.914398193359,1892.03503417969,80616.53125
6.4559268951416,-167.06201171875,119.933319091797,1918.32214355469,-30.7394924163818,22.3956069946289,329.036468505859,1.30416202545166,-1.05335235595703,-24.0206394195557,-5.19905567169189,-4.22378492355347,0.253417730331421,143.924377441406,1918.32214355469,80355.0703125
6.53477764129639,-169.481857299805,121.696006774902,1944.19299316406,-30.6385498046875,22.3140773773193,327.165740966797,1.28017318248749,-1.03397393226624,-23.7249183654785,-5.21106290817261,-4.23361778259277,0.254309713840485,143.934127807617,1944.19299316406,80098.421875
6.62034893035889,-172.099029541016,123.601722717285,1972.10302734375,-30.5311088562012,22.2272987365723,325.161437988281,1.25557243824005,-1.01410925388336,-23.4226112365723,-5.22421789169312,-4.24438047409058,0.255288481712341,143.944580078125,1972.10302734375,79822.296875
6.70282936096191,-174.613052368164,125.431648254395,1998.84362792969,-30.4296073913574,22.1453170776367,323.254730224609,1.23061263561249,-0.993952870368958,-23.1170921325684,-5.23699760437012,-4.25484323501587,0.256242245435715,143.954544067383,1998.84362792969,79558.4609375
6.78653860092163,-177.156051635742,127.28199005127,2025.82287597656,-30.328634262085,22.0637626647949,321.344543457031,1.20623636245728,-0.974258184432983,-22.8193054199219,-5.25007677078247,-4.26554822921753,0.257220566272736,143.96452331543,2025.82287597656,79292.9765625
6.86966323852539,-179.673004150391,129.112716674805,2052.45654296875,-30.230375289917,21.9843997955322,319.47216796875,1.18206799030304,-0.954745471477509,-22.5249156951904,-5.26318407058716,-4.27627229690552,0.258203029632568,143.974273681641,2052.45654296875,79031.609375
6.95535469055176,-182.259216308594,130.993148803711,2079.75073242187,-30.1311492919922,21.9042568206787,317.567108154297,1.15794515609741,-0.935250520706177,-22.2316207885742,-5.27679634094238,-4.28742074966431,0.259226888418198,143.98420715332,2079.75073242187,78764.4609375
7.04123973846436,-184.842834472656,132.871002197266,2106.94384765625,-30.0337753295898,21.8256092071533,315.682861328125,1.1337708234787,-0.915731132030487,-21.939172744751,-5.29056596755981,-4.29868793487549,0.260264486074448,143.994018554688,2106.94384765625,78499.046875
7.12899589538574,-187.474197387695,134.782867431641,2134.5634765625,-29.9363880157471,21.7469520568848,313.783081054687,1.10974907875061,-0.896314918994904,-21.6483993530273,-5.30475282669067,-4.31030416488647,0.261336952447891,144.00390625,2134.5634765625,78230.1875
7.21440696716309,-190.027114868164,136.637084960938,2161.28588867187,-29.8436164855957,21.6720218658447,311.958343505859,1.08617687225342,-0.877288997173309,-21.3641796112061,-5.31867933273315,-4.3217077255249,0.262392640113831,144.013366699219,2161.28588867187,77970.8125
7.29994821548462,-192.576065063477,138.487777709961,2187.89379882812,-29.7526550292969,21.5985546112061,310.154296875,1.0633636713028,-0.858851790428162,-21.089786529541,-5.33274269104004,-4.33322477340698,0.263461619615555,144.022705078125,2187.89379882812,77713.1875
7.40205049514771,-195.608444213867,140.68864440918,2219.45263671875,-29.6465797424316,21.5128784179687,308.030944824219,1.03891205787659,-0.839121282100678,-20.7963237762451,-5.34968852996826,-4.34709787368774,0.264752954244614,144.03369140625,2219.45263671875,77408.546875
7.49436044692993,-198.340774536133,142.670989990234,2247.79931640625,-29.5529479980469,21.4372520446777,306.138458251953,1.01431906223297,-0.81926566362381,-20.5014362335205,-5.365159034729,-4.35976266860962,0.26593542098999,144.043441772461,2247.79931640625,77135.75
7.58344268798828,-200.969467163086,144.577484130859,2274.990234375,-29.4645729064941,21.365873336792,304.335876464844,0.992061853408814,-0.801267564296722,-20.2350292205811,-5.3802056312561,-4.37209463119507,0.267090082168579,144.052719116211,2274.990234375,76874.78125
7.68922519683838,-204.080856323242,146.833221435547,2307.07177734375,-29.3620662689209,21.2830810546875,302.224517822266,0.969031989574432,-0.782665133476257,-19.9594306945801,-5.39826440811157,-4.386878490448,0.268478512763977,144.063537597656,2307.07177734375,76567.796875
7.7831563949585,-206.834686279297,148.828979492188,2335.373046875,-29.2731704711914,21.2112808227539,300.375122070312,0.94639265537262,-0.764391720294952,-19.6888332366943,-5.41443872451782,-4.40013313293457,0.269727319478989,144.072998046875,2335.373046875,76297.8203125
7.88525533676147,-209.818603515625,150.99072265625,2365.939453125,-29.1786975860596,21.1349773406982,298.390716552734,0.925307214260101,-0.747348427772522,-19.4361019134521,-5.43219709396362,-4.41467905044556,0.271102130413055,144.083099365234,2365.939453125,76007.109375
7.98178720474243,-212.631042480469,153.027496337891,2394.65405273438,-29.091329574585,21.0644130706787,296.537933349609,0.90506911277771,-0.730994582176209,-19.1934871673584,-5.44915628433228,-4.42856740951538,0.272418826818466,144.092514038086,2394.65405273438,75734.7890625
8.07943916320801,-215.467620849609,155.0810546875,2423.52099609375,-29.0047588348389,20.9944915771484,294.685424804688,0.886523306369782,-0.716027557849884,-18.9705219268799,-5.46645736694336,-4.44274711608887,0.273767501115799,144.10188293457,2423.52099609375,75461.859375
8.17422676086426,-218.212997436523,157.067901611328,2451.369140625,-28.9223403930664,20.9279232025146,292.906799316406,0.869506597518921,-0.702289938926697,-18.7643280029297,-5.48341655731201,-4.45664024353027,0.275093019008636,144.110870361328,2451.369140625,75199.2734375
8.26109790802002,-220.722274780273,158.883316040039,2476.744140625,-28.8480911254883,20.8679542541504,291.292358398437,0.85470575094223,-0.690320670604706,-18.5843162536621,-5.49909210205078,-4.46948671340942,0.276322335004807,144.119018554688,2476.744140625,74960.6640625
8.34902095794678,-223.255416870117,160.715438842773,2502.28393554687,-28.7733402252197,20.8075790405273,289.664733886719,0.850185453891754,-0.686682403087616,-18.5119209289551,-5.51509523391724,-4.48259687423706,0.277580469846725,144.127258300781,2502.28393554687,74721.140625
8.44160842895508,-225.915817260742,162.639007568359,2529.02392578125,-28.6945781707764,20.7439632415771,287.952728271484,0.850677251815796,-0.68708860874176,-18.4906826019287,-5.53209543228149,-4.49652481079102,0.278921097517014,144.135986328125,2529.02392578125,74471.0234375
8.53503608703613,-228.593002319336,164.574096679688,2555.84643554687,-28.6158790588379,20.68039894104,286.235717773437,0.842353463172913,-0.680358469486237,-18.3779678344727,-5.54938983917236,-4.51070928573608,0.280290544033051,144.144760131836,2555.84643554687,74220.8125
8.62744808197022,-231.23388671875,166.482330322266,2582.21997070312,-28.53879737854,20.6181411743164,284.547668457031,0.83410906791687,-0.673697888851166,-18.2665615081787,-5.56666994094849,-4.52486705780029,0.281661778688431,144.153396606445,2582.21997070312,73975.4296875
8.72293758392334,-233.955276489258,168.448104858398,2609.30834960938,-28.4599323272705,20.554443359375,282.81396484375,0.825902819633484,-0.667066156864166,-18.1559600830078,-5.58467435836792,-4.5396294593811,0.283096104860306,144.162292480469,2609.30834960938,73724.0859375
8.8150749206543,-236.574020385742,170.339126586914,2635.28930664062,-28.384578704834,20.4935817718506,281.151184082031,0.817840278148651,-0.66055291891098,-18.0467643737793,-5.60221385955811,-4.55400609970093,0.28449735045433,144.170837402344,2635.28930664062,73483.6796875
8.91412162780762,-239.381439208984,172.365737915039,2663.04833984375,-28.3043804168701,20.4288063049316,279.374572753906,0.809701681137085,-0.65398907661438,-17.9371070861816,-5.62125015258789,-4.56960773468018,0.286022931337357,144.179962158203,2663.04833984375,73227.5
9.01089954376221,-242.116912841797,174.339752197266,2690.001953125,-28.2268142700195,20.3661575317383,277.649353027344,0.801486015319824,-0.647345781326294,-17.8265838623047,-5.64001274108887,-4.58499813079834,0.287532895803452,144.188873291016,2690.001953125,72979.46875
9.1136531829834,-245.013122558594,176.429061889648,2718.43774414062,-28.1453056335449,20.3003234863281,275.829010009766,0.793243288993835,-0.640697956085205,-17.7156066894531,-5.6601414680481,-4.60150194168091,0.289157688617706,144.198272705078,2718.43774414062,72718.5234375
9.2106351852417,-247.739013671875,178.394836425781,2745.10522460937,-28.0691661834717,20.238826751709,274.121551513672,0.78508847951889,-0.634104609489441,-17.6059322357178,-5.6793270111084,-4.61723327636719,0.290711790323257,144.207107543945,2745.10522460937,72474.4765625
9.30730152130127,-250.448715209961,180.34831237793,2771.52172851562,-27.9940280914307,20.1781387329102,272.429779052734,0.777293264865875,-0.627809226512909,-17.5011539459229,-5.6986289024353,-4.63306379318237,0.292281031608582,144.215881347656,2771.52172851562,72233.3828125
9.40590763092041,-253.205352783203,182.334976196289,2798.30029296875,-27.9181461334228,20.116849899292,270.714294433594,0.769546210765839,-0.621552109718323,-17.397346496582,-5.71851205825806,-4.64936876296997,0.293902844190598,144.224792480469,2798.30029296875,71989.65625
9.50475025177002,-255.961120605469,184.320373535156,2824.97387695313,-27.842845916748,20.0560321807861,269.004943847656,0.761819303035736,-0.615298509597778,-17.2936592102051,-5.73862648010254,-4.66587591171265,0.295550525188446,144.233688354492,2824.97387695313,71747.5390625
9.60533046722412,-258.757751464844,186.334533691406,2851.943359375,-27.7670001983643,19.9947719573975,267.275939941406,0.754081904888153,-0.609068334102631,-17.1902980804443,-5.75931549072266,-4.68284177780151,0.297249972820282,144.24267578125,2851.943359375,71503.4296875
9.70862102508545,-261.621826171875,188.396591186523,2879.45922851562,-27.6899127960205,19.9325084686279,265.511077880859,0.746316075325012,-0.602799415588379,-17.0863838195801,-5.78076267242432,-4.70044040679932,0.29901921749115,144.251876831055,2879.45922851562,71255.03125
9.80991172790527,-264.422760009766,190.412506103516,2906.26586914063,-27.6150951385498,19.8720798492432,263.790802001953,0.738642871379852,-0.596586048603058,-16.9835510253906,-5.80201053619385,-4.71787929534912,0.300778865814209,144.260864257813,2906.26586914063,71013.7109375
9.90872287750244,-267.147857666016,192.373199462891,2932.24877929687,-27.5428447723389,19.8137226104736,262.122436523437,0.731196522712708,-0.590593636035919,-16.8843841552734,-5.8229455947876,-4.73506498336792,0.302519291639328,144.269577026367,2932.24877929687,70780.4453125
10.0124349594116,-270.00048828125,194.42497253418,2959.34375,-27.4677791595459,19.7530937194824,260.381561279297,0.723788499832153,-0.584588527679443,-16.7856559753418,-5.84515762329102,-4.7532844543457,0.304371207952499,144.278701782227,2959.34375,70537.8671875
10.1110954284668,-272.706970214844,196.371002197266,2984.95190429687,-27.3970909118652,19.6959991455078,258.735076904297,0.716479957103729,-0.578697562217712,-16.6883907318115,-5.86649513244629,-4.77079391479492,0.30615758895874,144.287322998047,2984.95190429687,70309.1875
10.2136325836182,-275.512451171875,198.387557983398,3011.39453125,-27.3243598937988,19.6372547149658,257.03369140625,0.709313809871674,-0.572908699512482,-16.5928688049316,-5.88889074325562,-4.78918313980103,0.308040678501129,144.296264648438,3011.39453125,70073.71875
10.3147487640381,-278.271789550781,200.370300292969,3037.30029296875,-27.2533626556396,19.5799102783203,255.365509033203,0.702135264873505,-0.567114353179932,-16.4976806640625,-5.91120529174805,-4.80750417709351,0.309923976659775,144.305023193359,3037.30029296875,69843.6328125
10.4173707962036,-281.064910888672,202.376663208008,3063.419921875,-27.1820335388184,19.5222988128662,253.682113647461,0.695066332817078,-0.561394691467285,-16.4038391113281,-5.93408679962158,-4.82628965377808,0.311862289905548,144.313873291016,3063.419921875,69612.2734375
10.5236530303955,-283.949981689453,204.448394775391,3090.28955078125,-27.1089191436768,19.4632453918457,251.948760986328,0.687926769256592,-0.55562835931778,-16.3089599609375,-5.9580397605896,-4.84595584869385,0.313899546861649,144.322998046875,3090.28955078125,69374.8984375
10.6303482055664,-286.838500976563,206.521896362305,3117.07885742187,-27.0362892150879,19.4045829772949,250.218841552734,0.680723667144775,-0.549813210964203,-16.2136611938477,-5.98234844207764,-4.86591815948486,0.315975785255432,144.332107543945,3117.07885742187,69138.8984375
10.736988067627,-289.717803955078,208.588104248047,3143.67041015625,-26.9644546508789,19.3465633392334,248.49983215332,0.673618316650391,-0.544070839881897,-16.1197643280029,-6.00690317153931,-4.88608741760254,0.31808215379715,144.341171264648,3143.67041015625,68905.28125
10.8431568145752,-292.576812744141,210.639068603516,3169.962890625,-26.8936805725098,19.289400100708,246.798233032227,0.666618764400482,-0.538418710231781,-16.027307510376,-6.03161430358887,-4.90638875961304,0.32021090388298,144.350143432617,3169.962890625,68674.9296875
10.9489631652832,-295.418640136719,212.677017211914,3195.986328125,-26.8238754272461,19.2330188751221,245.112030029297,0.659744381904602,-0.532871842384338,-15.9366903305054,-6.05651760101318,-4.92684459686279,0.322364866733551,144.35905456543,3195.986328125,68447.53125
11.0537767410278,-298.2265625,214.690002441406,3221.59033203125,-26.7554321289062,19.1777381896973,243.450958251953,0.653000295162201,-0.527419149875641,-15.8478689193726,-6.08145475387573,-4.94733381271362,0.324531048536301,144.36784362793,3221.59033203125,68224.3828125
11.1602125167847,-301.070617675781,216.728240966797,3247.41284179687,-26.6866397857666,19.1221752166748,241.773529052734,0.646327257156372,-0.522032856941223,-15.760012626648,-6.10705423355103,-4.96836996078491,0.326764166355133,144.376708984375,3247.41284179687,67999.9375
11.2681589126587,-303.947601318359,218.789398193359,3273.419921875,-26.6175937652588,19.06640625,240.081756591797,0.6396324634552,-0.516635715961456,-15.6723384857178,-6.13330221176147,-4.98994302749634,0.329064160585403,144.385665893555,3273.419921875,67774.484375
11.3773975372314,-306.851501464844,220.869125366211,3299.55297851562,-26.5484504699707,19.0105590820313,238.379302978516,0.632956504821777,-0.511240124702454,-15.5847225189209,-6.16016578674316,-5.01202487945557,0.331428527832031,144.394683837891,3299.55297851562,67548.5546875
11.4839057922363,-309.675567626953,222.891036987305,3324.85424804687,-26.4817333221436,18.9566707611084,236.728546142578,0.626403510570526,-0.505954384803772,-15.4988632202148,-6.18666696548462,-5.0338020324707,0.333770424127579,144.403427124023,3324.85424804687,67330.390625
11.5966453552246,-312.657165527344,225.025009155273,3351.44482421875,-26.4118537902832,18.9002285003662,234.99089050293,0.619831502437592,-0.500642895698547,-15.4130067825317,-6.21503257751465,-5.05712413787842,0.336289495229721,144.412628173828,3351.44482421875,67101.734375
11.7099599838257,-315.646057128906,227.163497924805,3377.97436523438,-26.3423748016357,18.8441104888916,233.254241943359,0.613151073455811,-0.495240658521652,-15.3258991241455,-6.24386930465698,-5.08084487915039,0.338863432407379,144.421844482422,3377.97436523438,66874.21875
11.8197116851807,-318.533508300781,229.228713989258,3403.482421875,-26.2757930755615,18.7903327941895,231.581512451172,0.606657803058624,-0.489994168281555,-15.2410345077515,-6.27214622497559,-5.10409355163574,0.341397643089294,144.430709838867,3403.482421875,66656.046875
11.9301080703735,-321.430603027344,231.300140380859,3428.95581054688,-26.2095203399658,18.7368030548096,229.908050537109,0.600316166877747,-0.484886705875397,-15.1586656570435,-6.30091524124146,-5.12775802612305,0.34398877620697,144.439590454102,3428.95581054688,66438.765625
12.0444383621216,-324.423248291016,233.439178466797,3455.142578125,-26.1416149139404,18.6819553375244,228.184432983398,0.593940794467926,-0.479730397462845,-15.0757732391357,-6.33107042312622,-5.15256309509277,0.3467176258564,144.44873046875,3455.142578125,66215.9765625
12.1546115875244,-327.299774169922,235.494537353516,3480.19140625,-26.0768699645996,18.6296615600586,226.532470703125,0.587665021419525,-0.474650502204895,-14.9942264556885,-6.36046743392944,-5.17675590515137,0.349391579627991,144.457489013672,3480.19140625,66003.4375
12.2652025222778,-330.180084228516,237.55192565918,3505.15258789062,-26.0125560760498,18.5777149200439,224.88298034668,0.581547558307648,-0.469718784093857,-14.9152402877808,-6.39033603668213,-5.20133304595947,0.352120608091354,144.466232299805,3505.15258789062,65792.203125
12.3747177124023,-333.025390625,239.583679199219,3529.69165039062,-25.9495239257812,18.5268039703369,223.258041381836,0.575556218624115,-0.4648756980896,-14.8375673294067,-6.42025947570801,-5.22596216201782,0.354868292808533,144.474853515625,3529.69165039062,65585.0625
12.4865989685059,-335.925079345703,241.653594970703,3554.57763671875,-25.8857975006104,18.4753322601318,221.60661315918,0.569589853286743,-0.460056602954865,-14.7605438232422,-6.45120000839233,-5.25143146514893,0.357723027467728,144.483612060547,3554.57763671875,65375.51953125
12.5988502502441,-338.827239990234,243.724609375,3579.36059570312,-25.82253074646,18.4242305755615,219.95832824707,0.56361722946167,-0.455243676900864,-14.6838846206665,-6.48262548446655,-5.27729940414429,0.360636532306671,144.49235534668,3579.36059570312,65167.39453125
12.7134580612183,-341.783020019531,245.833206176758,3604.4736328125,-25.758617401123,18.3726081848145,218.284225463867,0.557670056819916,-0.450426459312439,-14.6072311401367,-6.51510334014893,-5.30404376983643,0.363663405179977,144.501235961914,3604.4736328125,64957.0390625
12.8295392990112,-344.769378662109,247.962921142578,3629.71435546875,-25.6945743560791,18.3208808898926,216.597503662109,0.551708817481995,-0.445612877607346,-14.5305290222168,-6.54840707778931,-5.33147764205933,0.366784065961838,144.510162353516,3629.71435546875,64746.1875
12.9461555480957,-347.762054443359,250.096435546875,3654.87475585937,-25.6309299468994,18.2694759368896,214.911895751953,0.545759379863739,-0.440804362297058,-14.4543142318726,-6.58229875564575,-5.35939455032349,0.369975984096527,144.519104003906,3654.87475585937,64536.52734375
13.060525894165,-350.68994140625,252.183059692383,3679.36010742187,-25.5691776275635,18.2195987701416,213.267272949219,0.5399329662323,-0.436102271080017,-14.3798007965088,-6.61597156524658,-5.38712930679321,0.373163282871246,144.527816772461,3679.36010742187,64333.02734375
13.1760959625244,-353.641387939453,254.28581237793,3703.91186523437,-25.507438659668,18.1697330474854,211.613845825195,0.534212410449982,-0.43147611618042,-14.3067073822021,-6.65042304992676,-5.41551780700684,0.376442462205887,144.536560058594,3703.91186523437,64129.5234375
13.2941160202026,-356.648101806641,256.427215576172,3728.78735351562,-25.4450702667236,18.1193580627441,209.933990478516,0.528455853462219,-0.426834106445313,-14.233642578125,-6.68606328964233,-5.44489336013794,0.379853457212448,144.545455932617,3728.78735351562,63923.83203125
13.4110975265503,-359.621124267578,258.5439453125,3753.24877929688,-25.3839168548584,18.0699653625488,208.277404785156,0.522761344909668,-0.422226577997208,-14.1610908508301,-6.72184610366821,-5.47439956665039,0.383297950029373,144.554214477539,3753.24877929688,63722.08984375
13.5303745269775,-362.645141601562,260.6962890625,3777.9912109375,-25.3222370147705,18.0201473236084,206.596878051758,0.517114281654358,-0.417666763067246,-14.0892772674561,-6.75883150100708,-5.50489044189453,0.386876672506332,144.563095092773,3777.9912109375,63518.56640625
13.6486530303955,-365.636627197266,262.824798583984,3802.3291015625,-25.2617378234863,17.9712829589844,204.938827514648,0.511497795581818,-0.413129717111588,-14.0181903839111,-6.79598760604858,-5.53553581237793,0.390493184328079,144.571838378906,3802.3291015625,63318.87890625
13.7701168060303,-368.701263427734,265.004638671875,3827.11865234375,-25.200288772583,17.9216499328613,203.244705200195,0.505904316902161,-0.408624112606049,-13.9475517272949,-6.83467388153076,-5.56744337081909,0.394279569387436,144.580764770508,3827.11865234375,63116
13.892315864563,-371.776977539063,267.191619873047,3851.85131835938,-25.1391525268555,17.8722705841064,201.548965454102,0.500300467014313,-0.404089450836182,-13.8768644332886,-6.87413167953491,-5.59999942779541,0.398165047168732,144.589691162109,3851.85131835938,62914.109375
14.0205049514771,-374.995483398438,269.479370117187,3877.57421875,-25.0757503509521,17.8210601806641,199.779266357422,0.494598865509033,-0.399491131305695,-13.8053798675537,-6.91612386703491,-5.63465118408203,0.402324974536896,144.599014282227,3877.57421875,62704.6875
14.1444416046143,-378.099517822266,271.685028076172,3902.228515625,-25.0151500701904,17.7721138000488,198.077056884766,0.488961726427078,-0.394930630922318,-13.7345123291016,-6.95731019973755,-5.66864538192749,0.406430572271347,144.607955932617,3902.228515625,62504.515625
14.2677011489868,-381.17919921875,273.872650146484,3926.53955078125,-24.9555549621582,17.7239780426025,196.392593383789,0.483492851257324,-0.390523582696915,-13.6659879684448,-6.99885129928589,-5.70294761657715,0.410597801208496,144.616806030273,3926.53955078125,62307.60546875
14.3872852325439,-384.160064697266,275.989379882812,3949.927734375,-24.8983688354492,17.6777896881104,194.766265869141,0.478208512067795,-0.386241644620895,-13.5998659133911,-7.0397367477417,-5.73670816421509,0.414723426103592,144.625335693359,3949.927734375,62118.671875
14.5112771987915,-387.243621826172,278.178344726562,3973.97314453125,-24.8397274017334,17.6304244995117,193.088104248047,0.472945421934128,-0.382002085447311,-13.5344381332397,-7.08273315429688,-5.77222156524658,0.419089049100876,144.634124755859,3973.97314453125,61924.890625
14.6354942321777,-390.325531005859,280.365417480469,3997.85400390625,-24.7816352844238,17.5835037231445,191.4150390625,0.467666268348694,-0.377732217311859,-13.4688873291016,-7.12643909454346,-5.80832719802856,0.423554629087448,144.642868041992,3997.85400390625,61732.94140625
14.7621850967407,-393.46142578125,282.590087890625,4021.99682617187,-24.7230529785156,17.5361862182617,189.716934204102,0.462403565645218,-0.373487889766693,-13.4035301208496,-7.17166233062744,-5.84570837020874,0.428206592798233,144.651733398438,4021.99682617187,61539.3515625
14.8880214691162,-396.56884765625,284.793853759766,4045.76440429688,-24.6655235290527,17.4897193908691,188.038421630859,0.457176625728607,-0.369263887405395,-13.3388509750366,-7.21726703643799,-5.88340902328491,0.432928085327148,144.660491943359,4045.76440429688,61349.26171875
15.0144662857056,-399.684051513672,287.002410888672,4069.4345703125,-24.6083679199219,17.4435558319092,186.359848022461,0.452020168304443,-0.365088582038879,-13.2751474380493,-7.26378774642944,-5.921875,0.437776148319244,144.669219970703,4069.4345703125,61160.41796875
15.1394805908203,-402.756958007813,289.180267333984,4092.62890625,-24.5524940490723,17.3984260559082,184.708068847656,0.446939826011658,-0.360996901988983,-13.2127208709717,-7.31047916412354,-5.96049070358276,0.442674189805985,144.677795410156,4092.62890625,60975.8125
15.2643985748291,-405.820556640625,291.350860595703,4115.599609375,-24.4972858428955,17.3538341522217,183.065200805664,0.441955626010895,-0.356969445943832,-13.1515731811523,-7.35783910751343,-5.999671459198,0.447675913572311,144.686325073242,4115.599609375,60793.44921875
15.391848564148,-408.939178466797,293.559722900391,4138.82470703125,-24.4415912628174,17.3088493347168,181.396774291992,0.436991631984711,-0.352960556745529,-13.0908327102661,-7.40690040588379,-6.04027557373047,0.452893048524857,144.694946289063,4138.82470703125,60609.51171875
15.5250978469849,-412.192169189453,295.863006591797,4162.8798828125,-24.3840370178223,17.2623615264893,179.660659790039,0.431929111480713,-0.348878473043442,-13.0290718078613,-7.4590220451355,-6.08342123031616,0.458474636077881,144.703918457031,4162.8798828125,60419.46875
15.6573305130005,-415.412811279297,298.142639160156,4186.5234375,-24.3275947570801,17.2167739868164,177.945983886719,0.426840513944626,-0.344752490520477,-12.9671125411987,-7.51158714294434,-6.126953125,0.464145481586456,144.712753295898,4186.5234375,60233.15234375
15.7883930206299,-418.597625732422,300.396179199219,4209.734375,-24.2723045349121,17.1721172332764,176.25439453125,0.421861469745636,-0.340728670358658,-12.9067373275757,-7.56453466415405,-6.17081737518311,0.469899713993073,144.721435546875,4209.734375,60050.69140625
15.918459892273,-421.751129150391,302.626861572266,4232.55029296875,-24.2180690765381,17.1283111572266,174.58332824707,0.416981339454651,-0.336796581745148,-12.8477468490601,-7.61794662475586,-6.21507549285889,0.475746363401413,144.730010986328,4232.55029296875,59871.77734375
16.0466117858887,-424.851318359375,304.819152832031,4254.818359375,-24.1652431488037,17.0856437683105,172.944229125977,0.412213385105133,-0.332943886518478,-12.7902841567993,-7.67142677307129,-6.25940752029419,0.481643885374069,144.738403320313,4254.818359375,59697.5625
16.1778221130371,-428.018524169922,307.058135986328,4277.40087890625,-24.1117763519287,17.0424575805664,171.273452758789,0.407489240169525,-0.329137116670609,-12.7335739135742,-7.72708606719971,-6.30555772781372,0.487826555967331,144.746932983398,4277.40087890625,59521.328125
16.3127517700195,-431.268249511719,309.354705810547,4300.3955078125,-24.0574398040771,16.9985694885254,169.563049316406,0.402702778577805,-0.325266450643539,-12.6762599945068,-7.7852931022644,-6.35383653640747,0.494342148303986,144.755645751953,4300.3955078125,59342.30078125
16.443790435791,-434.417266845703,311.579406738281,4322.50634765625,-24.0052871704102,16.9564456939697,167.909362792969,0.397994250059128,-0.32146081328392,-12.619836807251,-7.84278249740601,-6.40154266357422,0.500828325748444,144.764038085938,4322.50634765625,59170.5546875
16.5768127441406,-437.607025146484,313.832183837891,4344.73095703125,-23.9529609680176,16.9141826629639,166.237976074219,0.393364101648331,-0.317713856697083,-12.5647096633911,-7.90214395523071,-6.45081806182861,0.507577359676361,144.772506713867,4344.73095703125,58998.3359375
